time(millisecond),datetime(utc),latitude,longitude,height_above_takeoff(feet),height_above_ground_at_drone_location(feet),ground_elevation_at_drone_location(feet),altitude_above_seaLevel(feet),height_sonar(feet),speed(mph),distance(feet),mileage(feet),satellites,gpslevel,voltage(v),max_altitude(feet),max_ascent(feet),max_speed(mph),max_distance(feet), xSpeed(mph), ySpeed(mph), zSpeed(mph), compass_heading(degrees), pitch(degrees), roll(degrees),isPhoto,isVideo,rc_elevator,rc_aileron,rc_throttle,rc_rudder,rc_elevator(percent),rc_aileron(percent),rc_throttle(percent),rc_rudder(percent),gimbal_heading(degrees),gimbal_pitch(degrees),gimbal_roll(degrees),battery_percent,voltageCell1,voltageCell2,voltageCell3,voltageCell4,voltageCell5,voltageCell6,current(A),battery_temperature(f),altitude(feet),ascent(feet),flycStateRaw,flycState,message
0,2023-05-24 09:08:02,37.1814893898558,128.1928220037,0,Available with any HD 360 subscription,Available with any HD 360 subscription,1283.8896713338,0.328084,0,0,0,14,5,0,1283.8896713338,0,0,0,0,0,0,94.3, 3.2, 3.4,0,0,1024,1024,1024,1024,0,0,0,0,94.1,0,0,96,4.261,4.256,4.255,4.257,0,0,0,32,1283.8896713338,0,41,Motors_Started,
100,2023-05-24 09:08:02,37.1814894150275,128.192821982294,0,,,1283.8896713338,0.328084,0,0.0110933074416,0.0110933074416,14,5,0,1283.8896713338,0,0,0.0110933074416,0,0,0,94.3, 3.2, 3.4,0,0,1024,1024,1024,1024,0,0,0,0,94.1,0,0,96,4.261,4.256,4.255,4.257,0,0,0,32,1283.8896713338,0,41,Motors_Started,
200,2023-05-24 09:08:03,37.1814893602356,128.192822017813,0,,,1283.8896713338,0.328084,0,0.0115594491888,0.033592848844,14,5,0,1283.8896713338,0,0,0.0115594491888,0,0,0,94.3, 3.2, 3.4,0,0,1024,1024,1024,1024,0,0,0,0,94.1,0,0,96,4.261,4.256,4.255,4.257,0,0,0,32,1283.8896713338,0,41,Motors_Started,
300,2023-05-24 09:08:03,37.1814893779126,128.192822001274,0,,,1283.8896713338,0.328084,0,0.0044141405612,0.04163714044,14,5,0,1283.8896713338,0,0,0.0115594491888,0,0,0,94.3, 3.2, 3.4,0,0,1024,1024,1024,1024,0,0,0,0,94.1,0,0,96,4.261,4.256,4.255,4.257,0,0,0,32,1283.8896713338,0,41,Motors_Started,
400,2023-05-24 09:08:03,37.1814894973757,128.192822032109,0,,,1283.8896713338,0.328084,0,0.040088255876,0.08613517336,14,5,0,1283.8896713338,0,0,0.040088255876,0,0,0,94.3, 3.2, 3.4,0,0,1024,1024,1024,1024,0,0,0,0,94.1,0,0,96,4.261,4.256,4.255,4.257,0,0,0,32,1283.8896713338,0,41,Motors_Started,"현재 경고 구역(공항)에 있음. 비행 시 주의해주세요"
500,2023-05-24 09:08:03,37.1814895240708,128.192822017216,0,,,1283.8896713338,0.328084,0,0.04912565774,0.096793638268,14,5,0,1283.8896713338,0,0,0.04912565774,0,0,0,94.3, 3.2, 3.4,0,0,1024,1024,1024,1024,0,0,0,0,94.1,0,0,96,4.261,4.256,4.255,4.257,0,0,0,32,1283.8896713338,0,41,Motors_Started,
600,2023-05-24 09:08:03,37.1814894683517,128.192822044074,0,,,1283.8896713338,0.328084,0,0.0309505587332,0.118570541852,14,5,0,1283.8896713338,0,0,0.04912565774,0,0,0,94.3, 3.2, 3.4,0,0,1024,1024,1024,1024,0,0,0,0,94.1,0,0,96,4.261,4.256,4.255,4.257,0,0,0,32,1283.8896713338,0,41,Motors_Started,
700,2023-05-24 09:08:03,37.1814894885648,128.192822032486,0,,,1283.8896713338,0.328084,0,0.03697342638,0.126677825576,15,5,0,1283.8896713338,0,0,0.04912565774,0,0,0,94.3, 3.2, 3.4,0,0,1024,1024,1024,1024,0,0,0,0,94.1,0,0,96,4.261,4.256,4.255,4.257,0,0,0,32,1283.8896713338,0,41,Motors_Started,"Setting new Return-To-Home altitude to 50m (164 ft). Data Recorder File Index is 62. Setting new Maximum Flight Altitude to 150m (492 ft)"
800,2023-05-24 09:08:03,37.1814894430588,128.192822056462,0,,,1283.8896713338,0.328084,0,0.0247390427864,0.144684059748,15,5,0,1283.8896713338,0,0,0.04912565774,0,0,0,94.3, 3.2, 3.4,0,0,1024,1024,1024,1024,0,0,0,0,94.1,0,0,96,4.261,4.256,4.255,4.257,0,0,0,32,1283.8896713338,0,41,Motors_Started,
900,2023-05-24 09:08:03,37.1814894566959,128.192822048224,0,,,1283.8896713338,0.328084,0,0.0276081701748,0.150206041552,15,5,0,1283.8896713338,0,0,0.04912565774,0,0,0,94.3, 3.2, 3.4,0,0,1024,1024,1024,1024,0,0,0,0,94.1,0,0,96,4.261,4.256,4.255,4.257,0,0,0,32,1283.8896713338,0,41,Motors_Started,
1000,2023-05-24 09:08:03,37.1814894207852,128.192822069374,0,,,1283.8896713338,0.328084,0,0.0221762802372,0.164678811044,15,5,0,1283.8896713338,0,0,0.04912565774,0,0,0,94.3, 3.2, 3.4,0,0,1024,1024,1024,1024,0,0,0,0,94.1,0,0,96,4.261,4.256,4.255,4.257,0,0,0,32,1283.8896713338,0,41,Motors_Started,
1100,2023-05-24 09:08:03,37.1814894294874,128.192822064829,0,,,1283.8896713338,0.328084,0,0.0229090558512,0.168117787532,15,5,0,1283.8896713338,0,0,0.04912565774,0,0,0,94.3, 3.2, 3.4,0,0,1024,1024,1024,1024,0,0,0,0,94.1,0,0,96,4.261,4.256,4.255,4.257,0,0,0,32,1283.8896713338,0,41,Motors_Started,
1200,2023-05-24 09:08:04,37.181489564022,128.192822082291,0,,,1283.8896713338,0.328084,0,0.06752624888,0.217464245804,15,5,0,1283.8896713338,0,0,0.06752624888,0,0,0,94.3, 3.2, 3.4,0,0,1024,1024,1024,1024,0,0,0,0,94.1,0,0,96,4.261,4.256,4.255,4.257,0,0,0,32,1283.8896713338,0,11,AutoTakeoff,
1300,2023-05-24 09:08:04,37.1814895828784,128.192822080582,0,,,1283.8896713338,0.328084,0,0.073885172968,0.22436188382,15,5,0,1283.8896713338,0,0,0.073885172968,0,0,0,94.3, 3.2, 3.4,0,0,1024,1024,1024,1024,0,0,0,0,94.1,0,0,96,4.261,4.256,4.255,4.257,0,0,0,32,1283.8896713338,0,11,AutoTakeoff,
1400,2023-05-24 09:08:04,37.1814895410064,128.192821931091,0,,,1283.8896713338,0.328084,0,0.059048230236,0.270423893168,15,5,0,1283.8896713338,0,0,0.073885172968,0,0,0,94.3, 3.2, 3.4,0,0,1024,1024,1024,1024,0,0,0,0,94.1,0,0,96,4.261,4.256,4.255,4.257,0,0,0,32,1283.8896713338,0,11,AutoTakeoff,
1500,2023-05-24 09:08:04,37.1814895545666,128.192821917354,0,,,1283.8896713338,0.328084,0,0.065125658252,0.276781833004,15,5,0,1283.8896713338,0,0,0.073885172968,0,0,0,94.3, 3.2, 3.4,0,0,1024,1024,1024,1024,0,0,0,0,94.1,0,0,96,4.261,4.256,4.255,4.257,0,0,0,32,1283.8896713338,0,11,AutoTakeoff,
1600,2023-05-24 09:08:04,37.1814896828057,128.19282210909,0,,,1283.8896713338,0.328084,0,0.111186355264,0.34955053612,15,5,0,1283.8896713338,0,0,0.111186355264,0,0,0,94.3, 3.2, 3.4,0,0,1024,1024,1024,1024,0,0,0,0,94.1,0,0,96,4.261,4.256,4.255,4.257,0,0,0,32,1283.8896713338,0,11,AutoTakeoff,
1700,2023-05-24 09:08:04,37.1814897049865,128.192822113769,0,,,1283.8896713338,0.328084,0,0.119344163924,0.3577591978,15,5,0,1283.8896713338,0,0,0.119344163924,0,0,0,94.3, 3.1, 3.4,0,0,1024,1024,1024,1024,0,0,0,0,94.1,0,0,96,4.261,4.256,4.255,4.257,0,0,0,32,1283.8896713338,0,11,AutoTakeoff,
1800,2023-05-24 09:08:04,37.1814896539107,128.192821951621,0,,,1283.8896713338,0.328084,0,0.097522312832,0.40844161412,15,5,17.029,1283.8896713338,0,0,0.119344163924,0,0,0,94.4, 3, 3.4,0,0,1024,1024,1024,1024,0,0,0,0,94.1,0,0,96,4.261,4.256,4.255,4.257,0,0,0,32,1283.8896713338,0,11,AutoTakeoff,
1900,2023-05-24 09:08:04,37.1814896662879,128.192821940514,0,,,1283.8896713338,0.328084,0,0.10251476706,0.4139927954,15,5,17.029,1283.8896713338,0,0,0.119344163924,0,0,0,94.4, 1, 3.4,0,0,1024,1024,1024,1024,0,0,0,0,94.1,0,0,96,4.261,4.256,4.255,4.257,0,0,0,32,1283.8896713338,0,11,AutoTakeoff,
2000,2023-05-24 09:08:04,37.1814896083671,128.192822130376,0,,,1283.8896713338,0.328084,0,0.08781660386,0.47309056632,15,5,17.029,1283.8896713338,0,0,0.119344163924,0,0,0,94.6, -3.2, 3,0,0,1024,1024,1024,1024,0,0,0,0,94.1,0,0,96,4.261,4.256,4.255,4.257,0,0,0,32,1283.8896713338,0,11,AutoTakeoff,
2100,2023-05-24 09:08:04,37.1814896938075,128.192822171353,0,,,1283.8896713338,0.328084,0,0.121132549808,0.5064632708,15,5,17.029,1283.8896713338,0,0,0.121132549808,0,0,-0.223694,94.8, -6.5, 1.5,0,0,1024,1024,1024,1024,0,0,0,0,94.1,0,0,96,4.261,4.256,4.255,4.257,0,0,0,32,1283.8896713338,0,11,AutoTakeoff,
2200,2023-05-24 09:08:05,37.1814896484899,128.192822331283,0,,,1283.8896713338,0.328084,0.223694,0.134059059408,0.55580382356,15,5,17.029,1283.8896713338,0,0.223694,0.134059059408,0,0.223694,-0.671082,94.8, -4.4, 0.3,0,0,1024,1024,1024,1024,0,0,0,0,94.1,0,0,96,4.261,4.256,4.255,4.257,0,0,0,32,1283.8896713338,0,11,AutoTakeoff,
2300,2023-05-24 09:08:05,37.1814895964452,128.19282258871,0,,,1283.8896713338,0.328084,0.223694,0.186009192304,0.6330052696,16,5,17.029,1283.8896713338,0,0.223694,0.186009192304,0,0.447388,-0.894776,94.7, -0.2, -0.6,0,0,1024,1024,1024,1024,0,0,0,0,94.2,0,0,96,4.261,4.256,4.255,4.257,0,0,0,32,1283.8896713338,0,11,AutoTakeoff,
2400,2023-05-24 09:08:05,37.181489519384,128.192822786647,0.328084,,,1284.2177553338,0.328084,0.447388,0.232445545496,0.69704398556,16,5,17.029,1284.2177553338,0.328084,0.447388,0.232445545496,0,0.447388,-0.894776,94.7, 2, -0.6,0,0,1024,1024,1024,1024,0,0,0,0,94.2,0,0,96,4.261,4.256,4.255,4.257,0,0,0,32,1284.2177553338,0.328084,11,AutoTakeoff,
2500,2023-05-24 09:08:05,37.1814895191948,128.192823013727,0.328084,,,1284.2177553338,0.328084,0.223694,0.297367791668,0.76305448636,16,5,17.029,1284.2177553338,0.328084,0.447388,0.297367791668,0,0.223694,-0.894776,94.8, 2.7, 0,0,0,1024,1024,1024,1024,0,0,0,0,94.2,0,0,96,4.261,4.256,4.255,4.257,0,0,0,32,1284.2177553338,0.328084,11,AutoTakeoff,
2600,2023-05-24 09:08:05,37.1814896296005,128.192823205394,0.656168,,,1284.5458393338,0.328084,0.223694,0.36009843672,0.83180448856,16,5,17.029,1284.5458393338,0.656168,0.447388,0.36009843672,0,0.223694,-0.894776,94.7, 2.3, 0.6,0,0,1024,1024,1024,1024,0,0,0,0,94.2,0,0,96,4.261,4.256,4.255,4.257,0,0,0,32,1284.5458393338,0.656168,11,AutoTakeoff,
2700,2023-05-24 09:08:05,37.1814896727561,128.192823328174,0.656168,,,1284.5458393338,0.984252,0,0.39859909412,0.87081367616,16,5,17.029,1284.5458393338,0.656168,0.447388,0.39859909412,0,0,-0.894776,94.7, 1.7, 0.7,0,0,1024,1024,1024,1024,0,0,0,0,94.2,0,0,96,4.261,4.256,4.255,4.257,0,0,0,32,1284.5458393338,0.656168,11,AutoTakeoff,
2800,2023-05-24 09:08:05,37.1814896732843,128.192823168356,0.656168,,,1284.5458393338,0.984252,0,0.35398951264,0.91727037056,16,5,17.029,1284.5458393338,0.656168,0.447388,0.39859909412,0,0,-0.894776,94.7, 1, 0.8,0,0,1024,1024,1024,1024,0,0,0,0,94.2,0,0,96,4.261,4.256,4.255,4.257,0,0,0,32,1284.5458393338,0.656168,11,AutoTakeoff,
2900,2023-05-24 09:08:05,37.1814897169206,128.192823201681,0.984252,,,1284.8739233338,1.312336,0,0.36811352884,0.9359088226,15,5,17.029,1284.8739233338,0.984252,0.447388,0.39859909412,0,0,-0.894776,94.7, 0.6, 0.8,0,0,1024,1024,1024,1024,0,0,0,0,94.2,0,0,96,4.261,4.256,4.255,4.257,0,0,0,32,1284.8739233338,0.984252,11,AutoTakeoff,
3000,2023-05-24 09:08:05,37.1814895826525,128.192823241276,0.984252,,,1284.8739233338,1.312336,0,0.36655841068,0.98623034652,15,5,16.915,1284.8739233338,0.984252,0.447388,0.39859909412,0,0,-0.894776,94.7, 0.3, 0.6,0,0,1024,1024,1024,1024,0,0,0,0,94.2,0,0,96,4.242,4.232,4.226,4.215,0,0,0,32,1284.8739233338,0.984252,11,AutoTakeoff,"홈포인트 기록됨. RTH 고도: 50.0 m"
3100,2023-05-24 09:08:06,37.1814896100575,128.192823247139,1.312336,,,1285.2020073338,1.312336,0,0.37026904072,0.99637142296,15,5,16.915,1285.2020073338,1.312336,0.447388,0.39859909412,0,0,-0.894776,94.7, 0.2, 0.3,0,0,1024,1024,1024,1024,0,0,0,0,94.2,0,0,96,4.242,4.232,4.226,4.215,0,0,0,32,1285.2020073338,1.312336,11,AutoTakeoff,"Mavic 2 Enterprise Advanced Camera NO SD Card__Solution: Insert SD Card"
3200,2023-05-24 09:08:06,37.1814897209942,128.192823240565,1.312336,,,1285.2020073338,1.64042,0,0.37929463156,1.0368930778,15,5,16.915,1285.2020073338,1.312336,0.447388,0.39859909412,0,0,-0.894776,94.8, 0.1, 0.2,0,0,1024,1024,1024,1024,0,0,0,0,94.2,0,0,96,4.242,4.232,4.226,4.215,0,0,0,32,1285.2020073338,1.312336,11,AutoTakeoff,
3300,2023-05-24 09:08:06,37.1814897663291,128.192823232367,1.64042,,,1285.5300913338,1.64042,0,0.38265749256,1.05360239592,15,5,16.915,1285.5300913338,1.64042,0.447388,0.39859909412,0,0,-0.894776,94.9, 0, 0.4,0,0,1024,1024,1024,1024,0,0,0,0,94.2,0.4,0,96,4.242,4.232,4.226,4.215,0,0,0,32,1285.5300913338,1.64042,11,AutoTakeoff,
3400,2023-05-24 09:08:06,37.1814900301526,128.192822945529,1.64042,,,1285.5300913338,1.968504,0,0.35989830548,1.18095148136,15,5,16.915,1285.5300913338,1.64042,0.447388,0.39859909412,0,0,-0.894776,94.9, 0, 0.8,0,0,1024,1024,1024,1024,0,0,0,0,94.2,0.4,0,96,4.242,4.232,4.226,4.215,0,0,0,32,1285.5300913338,1.64042,11,AutoTakeoff,
3500,2023-05-24 09:08:06,37.1814901039408,128.192822908472,1.968504,,,1285.8581753338,1.968504,0,0.37020014308,1.20994754528,15,5,16.915,1285.8581753338,1.968504,0.447388,0.39859909412,0,0,-0.894776,94.9, 0, 0.9,0,0,1024,1024,1024,1024,0,0,0,0,94.2,0.4,0,96,4.242,4.232,4.226,4.215,0,0,0,32,1285.8581753338,1.968504,11,AutoTakeoff,
3600,2023-05-24 09:08:06,37.1814900155075,128.192822921834,1.968504,,,1285.8581753338,2.296588,0,0.35119095612,1.24244426548,15,5,16.915,1285.8581753338,1.968504,0.447388,0.39859909412,0,0,-1.11847,94.9, -0.2, 1,0,0,1024,1024,1024,1024,0,0,0,0,94.2,0.4,0,96,4.242,4.232,4.226,4.215,0,0,0,32,1285.8581753338,1.968504,11,AutoTakeoff,
3700,2023-05-24 09:08:06,37.1814900744524,128.192822894438,2.296588,,,1286.1862593338,2.296588,0,0.35976379104,1.26537733708,15,5,16.915,1286.1862593338,2.296588,0.447388,0.39859909412,0,0,-1.11847,95, -0.2, 1.2,0,0,1024,1024,1024,1024,0,0,0,0,94.2,0.4,0,96,4.242,4.232,4.226,4.215,0,0,0,32,1286.1862593338,2.296588,11,AutoTakeoff,
3800,2023-05-24 09:08:06,37.1814898011427,128.192822963835,2.296588,,,1286.1862593338,2.624672,0,0.316878947148,1.36711618548,15,5,16.915,1286.1862593338,2.296588,0.447388,0.39859909412,0,0,-1.11847,95, 0, 1.1,0,0,1024,1024,1024,1024,0,0,0,0,94.2,0.4,0,96,4.242,4.232,4.226,4.215,0,0,0,32,1286.1862593338,2.296588,11,AutoTakeoff,
3900,2023-05-24 09:08:06,37.1814898240146,128.192822958673,2.624672,,,1286.5143433338,2.624672,0,0.319610574532,1.37559387604,15,5,16.915,1286.5143433338,2.624672,0.447388,0.39859909412,0,0,-1.11847,95, 0.1, 1.2,0,0,1024,1024,1024,1024,0,0,0,0,94.2,0.4,0,96,4.242,4.232,4.226,4.215,0,0,0,32,1286.5143433338,2.624672,11,AutoTakeoff,
4000,2023-05-24 09:08:06,37.1814900530246,128.192823037317,2.624672,,,1286.5143433338,2.952756,0,0.38576772888,1.46221789456,15,5,16.915,1286.5143433338,2.624672,0.447388,0.39859909412,0,0,-1.11847,95, 0.5, 1.4,0,0,1024,1024,1024,1024,0,0,0,0,94.2,0.4,0,96,4.242,4.232,4.226,4.215,0,0,0,32,1286.5143433338,2.624672,11,AutoTakeoff,
4100,2023-05-24 09:08:07,37.1814900819664,128.192823030239,2.952756,,,1286.8424273338,3.28084,0,0.39090552432,1.47297576892,15,5,16.915,1286.8424273338,2.952756,0.447388,0.39859909412,0,0,-0.894776,95.1, 0.7, 1.2,0,0,1024,1024,1024,1024,0,0,0,0,94.2,0.4,0,96,4.242,4.232,4.226,4.215,0,0,0,32,1286.8424273338,2.952756,11,AutoTakeoff,
4200,2023-05-24 09:08:07,37.1814902792314,128.192822884266,2.952756,,,1286.8424273338,3.28084,0,0.41329397648,1.55652564036,15,5,16.915,1286.8424273338,2.952756,0.447388,0.41329397648,0,0,-0.894776,95, 0.4, 0.7,0,0,1024,1024,1024,1024,0,0,0,0,94.2,0.4,0,96,4.242,4.232,4.226,4.215,0,0,0,32,1286.8424273338,2.952756,11,AutoTakeoff,
4300,2023-05-24 09:08:07,37.1814903160588,128.192822835905,3.28084,,,1287.1705113338,3.608924,0,0.41558728364,1.57597117904,15,5,16.915,1287.1705113338,3.28084,0.447388,0.41558728364,0,0,-0.894776,95, 0.2, 0.4,0,0,1024,1024,1024,1024,0,0,0,0,94.2,0.4,0,96,4.242,4.232,4.226,4.215,0,0,0,32,1287.1705113338,3.28084,11,AutoTakeoff,
4400,2023-05-24 09:08:07,37.1814901934126,128.192822813392,3.28084,,,1287.1705113338,3.608924,0,0.37596457896,1.6211942776,15,5,16.915,1287.1705113338,3.28084,0.447388,0.41558728364,0,0,-0.894776,94.9, 0, 0.4,0,0,1024,1024,1024,1024,0,0,0,0,94.2,0.4,0,96,4.242,4.232,4.226,4.215,0,0,0,32,1287.1705113338,3.28084,14,Waypoint,
4500,2023-05-24 09:08:07,37.1814902274002,128.192822761005,3.608924,,,1287.4985953338,3.608924,0,0.37661418528,1.64083338584,15,5,16.915,1287.4985953338,3.608924,0.447388,0.41558728364,0,0,-0.894776,94.9, -0.2, 0.5,0,0,1024,1024,1024,1024,0,0,0,0,94.2,0.4,0,96,4.242,4.232,4.226,4.215,0,0,0,32,1287.4985953338,3.608924,14,Waypoint,
4600,2023-05-24 09:08:07,37.181490330149,128.192822779842,3.608924,,,1287.4985953338,3.937008,0,0.41060368768,1.67872052616,15,5,16.915,1287.4985953338,3.608924,0.447388,0.41558728364,0,0,-1.11847,94.9, -0.3, 0.6,0,0,1024,1024,1024,1024,0,0,0,0,94.2,0.4,0,96,4.242,4.232,4.226,4.215,0,0,0,32,1287.4985953338,3.608924,14,Waypoint,
4700,2023-05-24 09:08:07,37.1814901479872,128.192822706749,3.937008,,,1287.8266793338,3.937008,0,0.34391077216,1.74849415044,15,5,16.915,1287.8266793338,3.937008,0.447388,0.41558728364,0,0,-1.11847,94.8, -0.2, 0.8,0,0,1024,1024,1024,1024,0,0,0,0,94.2,0.4,0,96,4.242,4.232,4.226,4.215,0,0,0,32,1287.8266793338,3.937008,14,Waypoint,
4800,2023-05-24 09:08:07,37.1814901771522,128.192822680628,3.937008,,,1287.8266793338,4.265092,0,0.348179145,1.76156829784,15,5,16.915,1287.8266793338,3.937008,0.447388,0.41558728364,0,0,-1.11847,94.8, 0, 0.7,0,0,1024,1024,1024,1024,0,0,0,0,94.2,0.4,0,96,4.242,4.232,4.226,4.215,0,0,0,32,1287.8266793338,3.937008,14,Waypoint,
4900,2023-05-24 09:08:07,37.1814902081307,128.192822660981,4.265092,,,1288.1547633338,4.265092,0,0.35444883024,1.7742290594,15,5,16.788,1288.1547633338,4.265092,0.447388,0.41558728364,0,0,-1.11847,94.9, 0, 0.7,0,0,1024,1024,1024,1024,0,0,0,0,94.2,0.4,0,96,4.207,4.199,4.196,4.186,0,0,0,32,1288.1547633338,4.265092,14,Waypoint,
5000,2023-05-24 09:08:07,37.1814904904621,128.192822812085,4.265092,,,1288.1547633338,4.593176,0,0.46525920124,1.88621397112,15,5,16.788,1288.1547633338,4.265092,0.447388,0.46525920124,0,0,-1.11847,94.8, 0.2, 1,0,0,1024,1024,1024,1024,0,0,0,0,94.2,0.4,0,96,4.207,4.199,4.196,4.186,0,0,0,32,1288.1547633338,4.265092,14,Waypoint,
5100,2023-05-24 09:08:08,37.1814905499536,128.192822808737,4.593176,,,1288.4828473338,4.593176,0,0.4836450286,1.9079396936,15,5,16.788,1288.4828473338,4.593176,0.447388,0.4836450286,0,0,-1.342164,94.7, 0, 1.3,0,0,1024,1024,1024,1024,0,0,0,0,94.2,0.4,0,96,4.207,4.199,4.196,4.186,0,0,0,32,1288.4828473338,4.593176,14,Waypoint,
5200,2023-05-24 09:08:08,37.181490290614,128.192822711976,4.92126,,,1288.8109313338,4.92126,0,0.38780513052,2.00665032668,15,5,16.788,1288.8109313338,4.92126,0.447388,0.4836450286,0,0,-2.013246,94.7, -0.3, 0.9,0,0,1024,1024,1024,1024,0,0,0,0,94.2,0.4,0,96,4.207,4.199,4.196,4.186,0,0,0,32,1288.8109313338,4.92126,14,Waypoint,
5300,2023-05-24 09:08:08,37.1814903140308,128.192822713743,5.249344,,,1289.1390153338,5.249344,0,0.39534122,2.01521003824,15,5,16.788,1289.1390153338,5.249344,0.447388,0.4836450286,0,0,-2.684328,94.8, -0.2, 1,0,0,1024,1024,1024,1024,0,0,0,0,94.2,0.4,0,96,4.207,4.199,4.196,4.186,0,0,0,32,1289.1390153338,5.249344,14,Waypoint,
5400,2023-05-24 09:08:08,37.1814905642518,128.192822772878,5.577428,,,1289.4670993338,5.905512,0,0.48330710208,2.10810702284,15,5,16.788,1289.4670993338,5.577428,0.447388,0.4836450286,0,0,-3.35541,94.9, 0.1, 1.7,0,0,1024,1024,1024,1024,0,0,0,0,94.2,0.2,0,96,4.207,4.199,4.196,4.186,0,0,0,32,1289.4670993338,5.577428,14,Waypoint,
5500,2023-05-24 09:08:08,37.1814905911256,128.192822795592,6.233596,,,1290.1232673338,6.56168,0,0.49505579012,2.11992788936,15,5,16.788,1290.1232673338,6.233596,0.447388,0.49505579012,0,0,-4.250186,95.1, 0.4, 1.8,0,0,1024,1024,1024,1024,0,0,0,0,94.2,-0.4,0,96,4.207,4.199,4.196,4.186,0,0,0,32,1290.1232673338,6.233596,14,Waypoint,
5600,2023-05-24 09:08:08,37.1814906018142,128.19282282891,6.889764,,,1290.7794353338,7.217848,0,0.50305775888,2.13037080308,15,5,16.788,1290.7794353338,6.889764,0.447388,0.50305775888,0,0,-4.921268,95, 0.5, 1.7,0,0,1024,1024,1024,1024,0,0,0,0,94.3,-1.4,0,96,4.207,4.199,4.196,4.186,0,0,0,32,1290.7794353338,6.889764,14,Waypoint,
5700,2023-05-24 09:08:08,37.1814905884375,128.192822829392,7.545932,,,1291.4356033338,7.874016,0,0.49883859864,2.135252693,15,5,16.788,1291.4356033338,7.545932,0.447388,0.50305775888,0,0,-5.816044,95, 0.5, 1.1,0,0,1024,1024,1024,1024,0,0,0,0,94.3,-2.5,0,96,4.207,4.199,4.196,4.186,0,0,0,32,1291.4356033338,7.545932,14,Waypoint,
5800,2023-05-24 09:08:08,37.1814904302573,128.192822788899,8.530184,,,1292.4198553338,8.858268,0,0.44292652336,2.19415361352,15,5,16.788,1292.4198553338,8.530184,0.447388,0.50305775888,0,0,-6.487126,95, 0.6, 0.4,0,0,1024,1024,1024,1024,0,0,0,0,94.3,-4.1,0,96,4.207,4.199,4.196,4.186,0,0,0,32,1292.4198553338,8.530184,14,Waypoint,
5900,2023-05-24 09:08:08,37.181490396909,128.192822765775,9.514436,,,1293.4041073338,9.84252,0,0.4290354468,2.20805125176,15,5,16.583,1293.4041073338,9.514436,0.447388,0.50305775888,0,0,-6.934514,94.9, 0.9, 0.1,0,0,1024,1024,1024,1024,0,0,0,0,94.3,-6.3,0,96,4.164,4.148,4.143,4.128,0,0,0,32,1293.4041073338,9.514436,14,Waypoint,
6000,2023-05-24 09:08:08,37.1814906693695,128.192822833087,10.498688,,,1294.3883593338,10.826772,0,0.5254101218,2.3093668718,15,5,16.583,1294.3883593338,10.498688,0.447388,0.5254101218,0,0,-7.158208,95, 0.9, 0.4,0,0,1024,1024,1024,1024,0,0,0,0,94.3,-9,0,96,4.164,4.148,4.143,4.128,0,0,0,32,1294.3883593338,10.498688,14,Waypoint,
6100,2023-05-24 09:08:08,37.1814906878035,128.192822787582,11.811024,,,1295.7006953338,11.811024,0,0.5255249512,2.32420611112,15,5,16.583,1295.7006953338,11.811024,0.447388,0.5255249512,0,0,-7.158208,95, 0.5, 0.8,0,0,1024,1024,1024,1024,0,0,0,0,94.3,-12,0,96,4.164,4.148,4.143,4.128,0,0,0,32,1295.7006953338,11.811024,14,Waypoint,
6200,2023-05-24 09:08:09,37.1814910419453,128.192822400918,12.795276,,,1296.6849473338,12.795276,0,0.61372377292,2.49545939744,15,5,16.583,1296.6849473338,12.795276,0.447388,0.61372377292,0,0,-7.158208,94.9, -0.2, 1.3,0,0,1024,1024,1024,1024,0,0,0,0,94.3,-15,0,96,4.164,4.148,4.143,4.128,0,0,0,32,1296.6849473338,12.795276,14,Waypoint,
6300,2023-05-24 09:08:09,37.181491097678,128.192822321137,13.779528,,,1297.6691993338,13.779528,0,0.62989175244,2.52630257428,14,5,16.583,1297.6691993338,13.779528,0.447388,0.62989175244,0,0,-7.158208,94.9, -0.5, 1.9,0,0,1024,1024,1024,1024,0,0,0,0,94.3,-18,0,96,4.164,4.148,4.143,4.128,0,0,0,32,1297.6691993338,13.779528,14,Waypoint,
6400,2023-05-24 09:08:09,37.1814912373625,128.192821908089,14.76378,,,1298.6534513338,14.76378,0,0.67463584836,2.65673893016,14,5,16.583,1298.6534513338,14.76378,0.447388,0.67463584836,0,0,-7.158208,95, -0.8, 1.9,0,0,1024,1024,1024,1024,0,0,0,0,94.3,-21.1,0,96,4.164,4.148,4.143,4.128,0,0,0,32,1298.6534513338,14.76378,14,Waypoint,
6500,2023-05-24 09:08:09,37.1814912790326,128.192821813993,16.076116,,,1299.9657873338,15.748032,0,0.69146655756,2.68803158208,14,5,16.583,1299.9657873338,16.076116,0.447388,0.69146655756,0,0,-7.158208,94.9, -0.6, 1.5,0,0,1024,1024,1024,1024,0,0,0,0,94.3,-24.1,0,96,4.164,4.148,4.143,4.128,0,0,0,32,1299.9657873338,16.076116,14,Waypoint,
6600,2023-05-24 09:08:09,37.181491298983,128.192821250385,17.060368,,,1300.9500393338,16.732284,0,0.73015422284,2.85202765032,14,5,16.583,1300.9500393338,17.060368,0.447388,0.73015422284,0,0,-6.934514,94.8, -1, 1.2,0,0,1024,1024,1024,1024,0,0,0,0,94.3,-27.1,0,96,4.164,4.148,4.143,4.128,0,0,0,32,1300.9500393338,17.060368,14,Waypoint,
6700,2023-05-24 09:08:09,37.1814913277109,128.192821144087,18.04462,,,1301.9342913338,17.388452,0,0.74988191376,2.88465560412,14,5,16.583,1301.9342913338,18.04462,0.447388,0.74988191376,0,0,-6.934514,94.9, -1.1, 1.2,0,0,1024,1024,1024,1024,0,0,0,0,94.3,-30.2,0,96,4.164,4.148,4.143,4.128,0,0,0,32,1301.9342913338,18.04462,14,Waypoint,
6800,2023-05-24 09:08:09,37.1814914870007,128.192821519911,19.028872,,,1302.9185433338,18.372704,0,0.77795934248,3.0083990464,14,5,16.583,1302.9185433338,19.028872,0.447388,0.77795934248,0,0,-6.71082,94.8, -0.8, 1.4,0,0,1024,1024,1024,1024,0,0,0,0,94.3,-33.2,0,96,4.164,4.148,4.143,4.128,0,0,0,32,1302.9185433338,19.028872,14,Waypoint,
6900,2023-05-24 09:08:09,37.1814915242674,128.192821487207,20.013124,,,1303.9027953338,19.356956,0,0.79308073404,3.02498697344,14,5,16.673,1303.9027953338,20.013124,0.447388,0.79308073404,0,0,-6.71082,94.9, -0.8, 1.7,0,0,1024,1024,1024,1024,0,0,0,0,94.3,-36.2,0,96,4.178,4.168,4.168,4.159,0,0,0,32,1303.9027953338,20.013124,14,Waypoint,
7000,2023-05-24 09:08:09,37.1814915525645,128.192821922625,20.997376,,,1304.8870473338,20.341208,0,0.78941603576,3.15197844732,14,5,16.673,1304.8870473338,20.997376,0.447388,0.79308073404,0,0,-6.71082,94.9, -0.4, 2,0,0,1024,1024,1024,1024,0,0,0,0,94.3,-39.2,0,96,4.178,4.168,4.168,4.159,0,0,0,32,1304.8870473338,20.997376,14,Waypoint,
7100,2023-05-24 09:08:09,37.1814915717243,128.192821948661,21.981628,,,1305.8712993338,21.32546,0,0.79621393624,3.16228028492,14,5,16.673,1305.8712993338,21.981628,0.447388,0.79621393624,0,0,-6.71082,94.9, -0.3, 1.8,0,0,1024,1024,1024,1024,0,0,0,0,94.3,-42.2,0,96,4.178,4.168,4.168,4.159,0,0,0,32,1305.8712993338,21.981628,14,Waypoint,
7200,2023-05-24 09:08:10,37.1814914572751,128.192822219639,22.96588,,,1306.8555513338,22.637796,0,0.75690291136,3.25143383108,14,5,16.673,1306.8555513338,22.96588,0.447388,0.79621393624,0,0,-6.71082,94.9, -0.1, 1.7,0,0,1024,1024,1024,1024,0,0,0,0,94.3,-45.3,0,96,4.178,4.168,4.168,4.159,0,0,0,32,1306.8555513338,22.96588,14,Waypoint,
7300,2023-05-24 09:08:10,37.1814913855285,128.192822349517,23.950132,,,1307.8398033338,23.622048,0,0.73502627024,3.2973754336,15,5,16.673,1307.8398033338,23.950132,0.447388,0.79621393624,0,0,-6.71082,94.9, -0.3, 1.6,0,0,1024,1024,1024,1024,0,0,0,0,94.3,-48.3,0,96,4.178,4.168,4.168,4.159,0,0,0,32,1307.8398033338,23.950132,14,Waypoint,
7400,2023-05-24 09:08:10,37.1814913678114,128.192822394737,24.934384,,,1308.8240553338,24.6063,0,0.73055448532,3.31200798,15,5,16.673,1308.8240553338,24.934384,0.447388,0.79621393624,0,0,-6.71082,94.9, -0.3, 1.6,0,0,1024,1024,1024,1024,0,0,0,0,94.3,-51.3,0,96,4.178,4.168,4.168,4.159,0,0,0,32,1308.8240553338,24.934384,14,Waypoint,
7500,2023-05-24 09:08:10,37.1814913429245,128.192822435913,25.918636,,,1309.8083073338,25.262468,0,0.72356629612,3.3270342272,15,5,16.673,1309.8083073338,25.918636,0.447388,0.79621393624,0,0,-6.71082,94.9, -0.3, 1.8,0,0,1024,1024,1024,1024,0,0,0,0,94.3,-54.3,0,96,4.178,4.168,4.168,4.159,0,0,0,32,1309.8083073338,25.918636,14,Waypoint,
7600,2023-05-24 09:08:10,37.1814913050618,128.192822612385,26.902888,,,1310.7925593338,26.24672,0,0.72081367136,3.3801838352,15,5,16.673,1310.7925593338,26.902888,0.447388,0.79621393624,0,0,-6.71082,94.9, -0.3, 1.8,0,0,1024,1024,1024,1024,0,0,0,0,94.3,-57.4,0,96,4.178,4.168,4.168,4.159,0,0,0,32,1310.7925593338,26.902888,14,Waypoint,
7700,2023-05-24 09:08:10,37.1814912673822,128.192822656405,27.88714,,,1311.7768113338,27.230972,0,0.71080382852,3.39895024,15,5,16.673,1311.7768113338,27.88714,0.447388,0.79621393624,0,0,-6.71082,94.8, -0.3, 1.6,0,0,1024,1024,1024,1024,0,0,0,0,94.3,-60.4,0,96,4.178,4.168,4.168,4.159,0,0,0,32,1311.7768113338,27.88714,14,Waypoint,
7800,2023-05-24 09:08:10,37.1814912723212,128.192822658672,28.871392,,,1312.7610633338,29.855644,0,0.71271655824,3.4008859356,15,5,16.673,1312.7610633338,28.871392,0.447388,0.79621393624,0,0,-6.71082,94.8, -0.3, 1.4,0,0,1024,1024,1024,1024,0,0,0,0,94.3,-63.4,0,96,4.178,4.168,4.168,4.159,0,0,0,32,1312.7610633338,28.871392,14,Waypoint,
7900,2023-05-24 09:08:10,37.1814912280896,128.192822685676,29.855644,,,1313.7453153338,30.839896,0,0.69936353944,3.4188321304,15,5,16.68,1313.7453153338,29.855644,0.447388,0.79621393624,0,0,-6.71082,94.8, -0.4, 1.1,0,0,1024,1024,1024,1024,0,0,0,0,94.3,-66.5,0,96,4.181,4.171,4.169,4.159,0,0,0,32,1313.7453153338,29.855644,14,Waypoint,
8000,2023-05-24 09:08:10,37.1814910959401,128.192822713407,30.839896,,,1314.7295673338,32.152232,0,0.65576117584,3.467683838,15,5,16.68,1314.7295673338,30.839896,0.447388,0.79621393624,0,0,-6.71082,94.9, -0.6, 1.1,0,0,1024,1024,1024,1024,0,0,0,0,94.3,-69.5,0,96,4.181,4.171,4.169,4.159,0,0,0,32,1314.7295673338,30.839896,14,Waypoint,
8100,2023-05-24 09:08:11,37.1814910466977,128.192822741149,31.824148,,,1315.7138193338,33.136484,0,0.64138125412,3.4874016864,15,5,16.68,1315.7138193338,31.824148,0.447388,0.79621393624,0,0,-6.71082,94.8, -0.5, 1.3,0,0,1024,1024,1024,1024,0,0,0,0,94.3,-72.5,0,96,4.181,4.171,4.169,4.159,0,0,0,32,1315.7138193338,31.824148,14,Waypoint,
8200,2023-05-24 09:08:11,37.1814909526642,128.192822810039,33.136484,,,1317.0261553338,34.120736,0.223694,0.6164862402,3.5271326588,15,5,16.68,1317.0261553338,33.136484,0.447388,0.79621393624,-0.223694,0,-6.71082,94.9, 0, 1.1,0,0,1024,1024,1024,1024,0,0,0,0,94.3,-75.5,0,96,4.181,4.171,4.169,4.159,0,0,0,32,1317.0261553338,33.136484,14,Waypoint,
8300,2023-05-24 09:08:11,37.1814908907432,128.192822836567,34.120736,,,1318.0104073338,35.104988,0.223694,0.59873033412,3.5509843656,15,5,16.68,1318.0104073338,34.120736,0.447388,0.79621393624,-0.223694,0,-6.71082,94.7, 0.2, 0.6,0,0,1024,1024,1024,1024,0,0,0,0,94.3,-78.6,0,96,4.181,4.171,4.169,4.159,0,0,0,32,1318.0104073338,34.120736,14,Waypoint,
8400,2023-05-24 09:08:11,37.1814908384374,128.192823070008,35.104988,,,1318.9946593338,35.761156,0.223694,0.61270015084,3.6214896172,15,5,16.68,1318.9946593338,35.104988,0.447388,0.79621393624,-0.223694,0,-6.71082,94.7, 0.3, 0.2,0,0,1024,1024,1024,1024,0,0,0,0,94.3,-81.6,0,96,4.181,4.171,4.169,4.159,0,0,0,32,1318.9946593338,35.104988,14,Waypoint,
8500,2023-05-24 09:08:11,37.1814907903406,128.192823075556,36.08924,,,1319.9789113338,36.745408,0.223694,0.59846786692,3.639107728,15,5,16.68,1319.9789113338,36.08924,0.447388,0.79621393624,-0.223694,0,-6.71082,94.8, 0, -0.1,0,0,1024,1024,1024,1024,0,0,0,0,94.3,-84.6,0,96,4.181,4.171,4.169,4.159,0,0,0,32,1319.9789113338,36.08924,14,Waypoint,
8600,2023-05-24 09:08:11,37.1814907701358,128.192822906733,37.073492,,,1320.9631633338,37.72966,0.223694,0.56790028064,3.6887140288,15,5,16.68,1320.9631633338,37.073492,0.447388,0.79621393624,-0.223694,0,-6.71082,94.9, -0.3, -0.2,0,0,1024,1024,1024,1024,0,0,0,0,94.3,-87.6,0,96,4.181,4.171,4.169,4.159,0,0,0,32,1320.9631633338,37.073492,14,Waypoint,
8700,2023-05-24 09:08:11,37.181490758134,128.192822862486,38.057744,,,1321.9474153338,38.713912,0.223694,0.558152905,3.7022967064,15,5,16.68,1321.9474153338,38.057744,0.447388,0.79621393624,-0.223694,0,-6.71082,94.9, -0.6, 0,0,0,1024,1024,1024,1024,0,0,0,0,94.3,-89.9,0,96,4.181,4.171,4.169,4.159,0,0,0,32,1321.9474153338,38.057744,14,Waypoint,
8800,2023-05-24 09:08:11,37.1814906142856,128.192822884225,39.041996,,,1322.9316673338,39.698164,0,0.5148622212,3.7551838472,15,5,16.68,1322.9316673338,39.041996,0.447388,0.79621393624,0,0,-6.71082,94.9, -0.7, -0.1,0,0,1024,1024,1024,1024,0,0,0,0,94.3,-89.9,0,96,4.181,4.171,4.169,4.159,0,0,0,32,1322.9316673338,39.041996,14,Waypoint,
8900,2023-05-24 09:08:11,37.1814906178472,128.192822839306,40.026248,,,1323.9159193338,40.682416,0,0.50963912392,3.7683072072,15,5,16.667,1323.9159193338,40.026248,0.447388,0.79621393624,0,0,-6.71082,95, -0.9, 0,0,0,1024,1024,1024,1024,0,0,0,0,94.3,-90,0,96,4.179,4.167,4.166,4.155,0,0,0,32,1323.9159193338,40.026248,14,Waypoint,
9000,2023-05-24 09:08:11,37.1814906429551,128.192822811549,41.0105,,,1324.9001713338,41.666668,0,0.51397311356,3.780511932,15,5,16.667,1324.9001713338,41.0105,0.447388,0.79621393624,0,0,-6.71082,94.9, -1, 0,0,0,1024,1024,1024,1024,0,0,0,0,94.3,-90,0,96,4.179,4.167,4.166,4.155,0,0,0,32,1324.9001713338,41.0105,14,Waypoint,
9100,2023-05-24 09:08:11,37.1814906731043,128.192822778095,41.994752,,,1325.8844233338,42.65092,0,0.51949476728,3.7951772868,15,5,16.667,1325.8844233338,41.994752,0.447388,0.79621393624,0,0,-6.487126,94.9, -1, 0.4,0,0,1024,1024,1024,1024,0,0,0,0,94.3,-90,0,96,4.179,4.167,4.166,4.155,0,0,0,32,1325.8844233338,41.994752,14,Waypoint,
9200,2023-05-24 09:08:12,37.1814906191242,128.192822706116,42.979004,,,1326.8686753338,43.635172,0,0.49278872968,3.8239174452,15,5,16.667,1326.8686753338,42.979004,0.447388,0.79621393624,0,0,-6.487126,94.9, -0.8, 0.5,0,0,1024,1024,1024,1024,0,0,0,0,94.3,-89.9,0,96,4.179,4.167,4.166,4.155,0,0,0,32,1326.8686753338,42.979004,14,Waypoint,
9300,2023-05-24 09:08:12,37.181490645781,128.192822684469,43.963256,,,1327.8529273338,44.619424,0,0.49912731256,3.8354988104,15,5,16.667,1327.8529273338,43.963256,0.447388,0.79621393624,0,0,-6.487126,94.9, -0.4, 0.5,0,0,1024,1024,1024,1024,0,0,0,0,94.3,-90,0,96,4.179,4.167,4.166,4.155,0,0,0,32,1327.8529273338,43.963256,14,Waypoint,
9400,2023-05-24 09:08:12,37.1814906696411,128.192822481017,44.947508,,,1328.8371793338,45.603676,0,0.4871063148,3.8952757152,15,5,16.667,1328.8371793338,44.947508,0.447388,0.79621393624,0,0,-6.487126,94.9, -0.5, 0.4,0,0,1024,1024,1024,1024,0,0,0,0,94.3,-89.9,0,96,4.179,4.167,4.166,4.155,0,0,0,32,1328.8371793338,44.947508,14,Waypoint,
9500,2023-05-24 09:08:12,37.1814906896861,128.192822434437,45.93176,,,1329.8214313338,46.587928,0,0.49049214168,3.9106628548,16,5,16.667,1329.8214313338,45.93176,0.447388,0.79621393624,0,0,-6.487126,94.9, -0.8, 0.3,0,0,1024,1024,1024,1024,0,0,0,0,94.3,-89.9,0,96,4.179,4.167,4.166,4.155,0,0,0,32,1329.8214313338,45.93176,14,Waypoint,
9600,2023-05-24 09:08:12,37.1814906401678,128.192822222032,46.916012,,,1330.8056833338,47.57218,0,0.46057088088,3.9750001272,16,5,16.667,1330.8056833338,46.916012,0.447388,0.79621393624,0,0,-6.487126,94.9, -1.1, 0.1,0,0,1024,1024,1024,1024,0,0,0,0,94.3,-89.9,0,96,4.179,4.167,4.166,4.155,0,0,0,32,1330.8056833338,46.916012,14,Waypoint,
9700,2023-05-24 09:08:12,37.1814906629322,128.192822173471,47.900264,,,1331.7899353338,48.556432,0,0.46709647164,3.9913715188,16,5,16.667,1331.7899353338,47.900264,0.447388,0.79621393624,0,0,-6.487126,94.8, -1.1, 0.2,0,0,1024,1024,1024,1024,0,0,0,0,94.3,-89.9,0,96,4.179,4.167,4.166,4.155,0,0,0,32,1331.7899353338,47.900264,14,Waypoint,
9800,2023-05-24 09:08:12,37.1814907878024,128.192822144573,48.884516,,,1332.7741873338,49.540684,0,0.5116798064,4.0376969796,16,5,16.667,1332.7741873338,48.884516,0.447388,0.79621393624,0,0,-6.487126,94.8, -1.1, 0.4,0,0,1024,1024,1024,1024,0,0,0,0,94.3,-90,0,96,4.179,4.167,4.166,4.155,0,0,0,32,1332.7741873338,48.884516,14,Waypoint,
9900,2023-05-24 09:08:12,37.1814908258866,128.192822125686,49.868768,,,1333.7584393338,50.524936,0,0.52513453124,4.05265761,17,5,16.641,1333.7584393338,49.868768,0.447388,0.79621393624,0,0,-6.487126,94.9, -0.9, 0.8,0,0,1024,1024,1024,1024,0,0,0,0,94.3,-90,0,96,4.173,4.161,4.159,4.148,0,0,0,32,1333.7584393338,49.868768,14,Waypoint,
10000,2023-05-24 09:08:12,37.1814907894887,128.192821980953,50.85302,,,1334.7426913338,51.509188,0,0.51069883524,4.0967520996,17,5,16.641,1334.7426913338,50.85302,0.447388,0.79621393624,0,0,-6.487126,94.9, -0.9, 0.8,0,0,1024,1024,1024,1024,0,0,0,0,94.3,-90,0,96,4.173,4.161,4.159,4.148,0,0,0,32,1334.7426913338,50.85302,14,Waypoint,
10100,2023-05-24 09:08:12,37.1814908097617,128.192821976105,51.837272,,,1335.7269433338,52.49344,0,0.51811353364,4.1042980316,17,5,16.641,1335.7269433338,51.837272,0.447388,0.79621393624,0,0,-6.487126,94.9, -0.8, 0.4,0,0,1024,1024,1024,1024,0,0,0,0,94.3,-90,0,96,4.173,4.161,4.159,4.148,0,0,0,32,1335.7269433338,51.837272,14,Waypoint,
10200,2023-05-24 09:08:13,37.181490738707,128.19282200234,52.821524,,,1336.7111953338,53.477692,0,0.49212928084,4.1313321532,17,5,16.641,1336.7111953338,52.821524,0.447388,0.79621393624,0,0,-6.487126,94.9, -0.6, 0.5,0,0,1024,1024,1024,1024,0,0,0,0,94.3,-90,0,96,4.173,4.161,4.159,4.148,0,0,0,32,1336.7111953338,52.821524,14,Waypoint,
10300,2023-05-24 09:08:13,37.181490744293,128.192822030386,53.805776,,,1337.6954473338,54.461944,0,0.4942257376,4.1397311036,17,5,16.641,1337.6954473338,53.805776,0.447388,0.79621393624,0,0,-6.487126,94.8, -0.4, 0.8,0,0,1024,1024,1024,1024,0,0,0,0,94.3,-90,0,96,4.173,4.161,4.159,4.148,0,0,0,32,1337.6954473338,53.805776,14,Waypoint,
10400,2023-05-24 09:08:13,37.181490826376,128.192822161578,54.790028,,,1338.6796993338,55.446196,0,0.52611878324,4.1882219188,17,5,16.641,1338.6796993338,54.790028,0.447388,0.79621393624,0,0,-6.71082,94.7, 0, 0.8,0,0,1024,1024,1024,1024,0,0,0,0,94.3,-89.9,0,96,4.173,4.161,4.159,4.148,0,0,0,32,1338.6796993338,54.790028,14,Waypoint,
10500,2023-05-24 09:08:13,37.1814908184497,128.192822214436,55.77428,,,1339.6639513338,56.430448,0,0.52480972808,4.2038387172,17,5,16.641,1339.6639513338,55.77428,0.447388,0.79621393624,0,0,-6.71082,94.7, 0.2, 0.3,0,0,1024,1024,1024,1024,0,0,0,0,94.3,-89.9,0,96,4.173,4.161,4.159,4.148,0,0,0,32,1339.6639513338,55.77428,14,Waypoint,
10600,2023-05-24 09:08:13,37.1814908961371,128.19282208954,56.758532,,,1340.6482033338,57.4147,0,0.5501312512,4.2499017108,17,5,16.641,1340.6482033338,56.758532,0.447388,0.79621393624,0,0,-6.71082,94.8, 0, 0.1,0,0,1024,1024,1024,1024,0,0,0,0,94.3,-90,0,96,4.173,4.161,4.159,4.148,0,0,0,32,1340.6482033338,56.758532,14,Waypoint,
10700,2023-05-24 09:08:13,37.1814908828204,128.192822139815,57.742784,,,1341.6324553338,58.398952,0,0.54614174976,4.2653216588,17,5,16.641,1341.6324553338,57.742784,0.447388,0.79621393624,0,0,-6.71082,94.7, 0.2, 0.1,0,0,1024,1024,1024,1024,0,0,0,0,94.3,-89.9,0,95,4.173,4.161,4.159,4.148,0,0,0,32,1341.6324553338,57.742784,14,Waypoint,
10800,2023-05-24 09:08:13,37.1814909647619,128.192822291104,58.727036,,,1342.6167073338,59.383204,0,0.58064634404,4.3184712668,17,5,16.641,1342.6167073338,58.727036,0.447388,0.79621393624,0,0,-6.71082,94.7, 0.7, 0.5,0,0,1024,1024,1024,1024,0,0,0,0,94.3,-89.9,0,95,4.173,4.161,4.159,4.148,0,0,0,32,1342.6167073338,58.727036,14,Waypoint,
10900,2023-05-24 09:08:13,37.1814909434868,128.192822356948,59.711288,,,1343.6009593338,60.367456,0,0.5760662914,4.3391405588,17,5,16.581,1343.6009593338,59.711288,0.447388,0.79621393624,0,0,-6.71082,94.8, 1, 0.2,0,0,1024,1024,1024,1024,0,0,0,0,94.3,-89.9,0,95,4.157,4.146,4.145,4.133,0,0,0,32,1343.6009593338,59.711288,14,Waypoint,
11000,2023-05-24 09:08:13,37.1814910506333,128.192822270272,60.69554,,,1344.5852113338,61.023624,0,0.61086944212,4.3856300616,17,5,16.581,1344.5852113338,60.69554,0.447388,0.79621393624,0,0,-6.71082,94.8, 0.7, 0,0,0,1024,1024,1024,1024,0,0,0,0,94.3,-90,0,95,4.157,4.146,4.145,4.133,0,0,0,32,1344.5852113338,60.69554,14,Waypoint,
11100,2023-05-24 09:08:13,37.1814910222108,128.192822301548,61.679792,,,1345.5694633338,62.007876,0,0.60182416624,4.399442398,17,5,16.581,1345.5694633338,61.679792,0.447388,0.79621393624,0,0,-6.71082,94.7, 0.6, 0,0,0,1024,1024,1024,1024,0,0,0,0,94.3,-90,0,95,4.157,4.146,4.145,4.133,0,0,0,32,1345.5694633338,61.679792,14,Waypoint,
11200,2023-05-24 09:08:14,37.1814909762816,128.192822333357,62.664044,,,1346.5537153338,62.992128,0,0.58668637048,4.4185696952,17,5,16.581,1346.5537153338,62.664044,0.447388,0.79621393624,0,0,-6.71082,94.8, 0.5, -0.4,0,0,1024,1024,1024,1024,0,0,0,0,94.3,-89.9,0,95,4.157,4.146,4.145,4.133,0,0,0,32,1346.5537153338,62.664044,14,Waypoint,
11300,2023-05-24 09:08:14,37.1814909360918,128.192822366762,63.648296,,,1347.5379673338,63.97638,0,0.57393046456,4.4361549976,17,5,16.581,1347.5379673338,63.648296,0.447388,0.79621393624,0,0,-6.71082,94.8, 0.8, -0.4,0,0,1024,1024,1024,1024,0,0,0,0,94.3,-89.9,0,95,4.157,4.146,4.145,4.133,0,0,0,32,1347.5379673338,63.648296,14,Waypoint,
11400,2023-05-24 09:08:14,37.1814909416058,128.192822407498,64.632548,,,1348.5222193338,64.960632,0,0.57819555656,4.448162872,17,5,16.581,1348.5222193338,64.632548,0.447388,0.79621393624,0,0,-6.71082,94.6, 0.7, 0,0,0,1024,1024,1024,1024,0,0,0,0,94.3,-90,0,95,4.157,4.146,4.145,4.133,0,0,0,32,1348.5222193338,64.632548,14,Waypoint,
11500,2023-05-24 09:08:14,37.1814909040824,128.192822448503,65.6168,,,1349.5064713338,65.944884,0,0.56739175044,4.4663387256,17,5,16.581,1349.5064713338,65.6168,0.447388,0.79621393624,0,0,-6.71082,94.7, 0.8, -0.2,0,0,1024,1024,1024,1024,0,0,0,0,94.3,-89.9,0,95,4.157,4.146,4.145,4.133,0,0,0,32,1349.5064713338,65.6168,14,Waypoint,
11600,2023-05-24 09:08:14,37.1814909451912,128.192822538174,66.601052,,,1350.4907233338,66.929136,0.223694,0.58834647552,4.49639122,17,5,16.581,1350.4907233338,66.601052,0.447388,0.79621393624,-0.223694,0,-6.71082,94.8, 0.9, -0.5,0,0,1024,1024,1024,1024,0,0,0,0,94.3,-90,0,95,4.157,4.146,4.145,4.133,0,0,0,32,1350.4907233338,66.601052,14,Waypoint,
11700,2023-05-24 09:08:14,37.1814909010954,128.192822568115,67.585304,,,1351.4749753338,67.913388,0.223694,0.57526576644,4.5146983072,17,5,16.581,1351.4749753338,67.585304,0.447388,0.79621393624,-0.223694,0,-6.71082,94.7, 1, -0.6,0,0,1024,1024,1024,1024,0,0,0,0,94.3,-89.9,0,95,4.157,4.146,4.145,4.133,0,0,0,32,1351.4749753338,67.585304,14,Waypoint,
11800,2023-05-24 09:08:14,37.1814907798989,128.192822626972,68.569556,,,1352.4592273338,68.89764,0.223694,0.53854660516,4.5621064452,17,5,16.581,1352.4592273338,68.569556,0.447388,0.79621393624,-0.223694,0,-6.71082,94.7, 1.1, -0.9,0,0,1024,1024,1024,1024,0,0,0,0,94.3,-89.9,0,95,4.157,4.146,4.145,4.133,0,0,0,32,1352.4592273338,68.569556,14,Waypoint,
11900,2023-05-24 09:08:14,37.1814907292623,128.192822637354,69.553808,,,1353.4434793338,69.881892,0.223694,0.52224083036,4.5808072332,17,5,16.582,1353.4434793338,69.553808,0.447388,0.79621393624,-0.223694,0,-6.71082,94.7, 0.8, -0.9,0,0,1024,1024,1024,1024,0,0,0,0,94.3,-89.9,0,95,4.159,4.147,4.143,4.133,0,0,0,32,1353.4434793338,69.553808,14,Waypoint,
12000,2023-05-24 09:08:14,37.1814906430545,128.192822813276,70.53806,,,1354.4277313338,70.866144,0,0.51423558076,4.6408466052,17,5,16.582,1354.4277313338,70.53806,0.447388,0.79621393624,0,0,-6.71082,94.8, 0.7, -1.1,0,0,1024,1024,1024,1024,0,0,0,0,94.3,-90,0,95,4.159,4.147,4.143,4.133,0,0,0,32,1354.4277313338,70.53806,14,Waypoint,
12100,2023-05-24 09:08:14,37.1814905948633,128.192822819178,71.194228,,,1355.0838993338,71.850396,0,0.49947836244,4.6585303328,17,5,16.582,1355.0838993338,71.194228,0.447388,0.79621393624,0,0,-6.71082,94.9, 0.7, -0.8,0,0,1024,1024,1024,1024,0,0,0,0,94.3,-89.9,0,95,4.159,4.147,4.143,4.133,0,0,0,32,1355.0838993338,71.194228,14,Waypoint,
12200,2023-05-24 09:08:15,37.18149055228,128.192822838842,72.17848,,,1356.0681513338,72.506564,0,0.48867455632,4.6750657664,17,5,16.582,1356.0681513338,72.17848,0.447388,0.79621393624,0,0,-6.71082,95, 0.7, -1,0,0,1024,1024,1024,1024,0,0,0,0,94.3,-89.9,0,95,4.159,4.147,4.143,4.133,0,0,0,32,1356.0681513338,72.17848,14,Waypoint,
12300,2023-05-24 09:08:15,37.1814905084406,128.192822837407,73.162732,,,1357.0524033338,73.490816,0,0.47464568448,4.6910762656,17,5,16.582,1357.0524033338,73.162732,0.447388,0.79621393624,0,0,-6.71082,95, 0.8, -1.2,0,0,1024,1024,1024,1024,0,0,0,0,94.3,-89.9,0,95,4.159,4.147,4.143,4.133,0,0,0,32,1357.0524033338,73.162732,14,Waypoint,
12400,2023-05-24 09:08:15,37.1814904888305,128.192822745296,74.146984,,,1358.0366553338,74.475068,0,0.45523623504,4.7187993636,17,5,16.582,1358.0366553338,74.146984,0.447388,0.79621393624,0,0,-6.487126,94.9, 0.4, -1.1,0,0,1024,1024,1024,1024,0,0,0,0,94.3,-90,0,95,4.159,4.147,4.143,4.133,0,0,0,32,1358.0366553338,74.146984,14,Waypoint,
12500,2023-05-24 09:08:15,37.1814904687472,128.192822727664,75.131236,,,1359.0209073338,75.45932,0,0.44635500116,4.7277232484,17,5,16.582,1359.0209073338,75.131236,0.447388,0.79621393624,0,0,-6.487126,94.9, 0.4, -0.9,0,0,1024,1024,1024,1024,0,0,0,0,94.3,-89.9,0,95,4.159,4.147,4.143,4.133,0,0,0,32,1359.0209073338,75.131236,14,Waypoint,
12600,2023-05-24 09:08:15,37.1814906124099,128.192822708931,76.115488,,,1360.0051593338,76.115488,0,0.49090224668,4.7804463472,17,5,16.582,1360.0051593338,76.115488,0.447388,0.79621393624,0,0,-6.487126,94.8, 0.3, -0.6,0,0,1024,1024,1024,1024,0,0,0,0,94.3,-89.9,0,95,4.159,4.147,4.143,4.133,0,0,0,32,1360.0051593338,76.115488,14,Waypoint,
12700,2023-05-24 09:08:15,37.1814906196121,128.192822687051,77.09974,,,1360.9894113338,77.09974,0,0.4906824304,4.7873033028,17,5,16.582,1360.9894113338,77.09974,0.447388,0.79621393624,0,0,-6.71082,94.8, 0.3, -0.6,0,0,1024,1024,1024,1024,0,0,0,0,94.3,-90,0,95,4.159,4.147,4.143,4.133,0,0,0,32,1360.9894113338,77.09974,14,Waypoint,
12800,2023-05-24 09:08:15,37.1814905531792,128.192822700256,78.083992,,,1361.9736633338,77.755908,0,0.4702592014,4.811843986,17,5,16.582,1361.9736633338,78.083992,0.447388,0.79621393624,0,0,-6.71082,94.8, 0.3, -0.6,0,0,1024,1024,1024,1024,0,0,0,0,94.3,-89.9,0,95,4.159,4.147,4.143,4.133,0,0,0,32,1361.9736633338,78.083992,14,Waypoint,
12900,2023-05-24 09:08:15,37.1814905566394,128.192822689645,79.068244,,,1362.9579153338,78.74016,0,0.47008203604,4.8151904428,17,5,16.576,1362.9579153338,79.068244,0.447388,0.79621393624,0,0,-6.71082,94.8, 0.4, -0.4,0,0,1024,1024,1024,1024,0,0,0,0,94.3,-89.9,0,95,4.156,4.145,4.144,4.131,0,0,0,32,1362.9579153338,79.068244,14,Waypoint,
13000,2023-05-24 09:08:15,37.1814904355288,128.192822734352,80.052496,,,1363.9421673338,79.724412,0,0.4366469956,4.8612534364,17,5,16.576,1363.9421673338,80.052496,0.447388,0.79621393624,0,0,-6.71082,94.8, 0.5, -0.6,0,0,1024,1024,1024,1024,0,0,0,0,94.3,-90,0,95,4.156,4.145,4.144,4.131,0,0,0,32,1363.9421673338,80.052496,14,Waypoint,
13100,2023-05-24 09:08:16,37.1814904252266,128.192822742013,81.036748,,,1364.9264193338,80.708664,0,0.43446195616,4.8656169536,17,5,16.576,1364.9264193338,81.036748,0.447388,0.79621393624,0,0,-6.71082,94.9, 0.9, -0.8,0,0,1024,1024,1024,1024,0,0,0,0,94.3,-89.9,0,95,4.156,4.145,4.144,4.131,0,0,0,32,1364.9264193338,81.036748,14,Waypoint,
13200,2023-05-24 09:08:16,37.1814902791538,128.192822957018,82.021,,,1365.9106713338,81.364832,0,0.42669292704,4.9477363788,17,5,16.576,1365.9106713338,82.021,0.447388,0.79621393624,0,0,-6.71082,94.8, 1.2, -0.9,0,0,1024,1024,1024,1024,0,0,0,0,94.3,-89.9,0,95,4.156,4.145,4.144,4.131,0,0,0,32,1365.9106713338,82.021,14,Waypoint,
13300,2023-05-24 09:08:16,37.1814902618651,128.192822977613,83.005252,,,1366.8949233338,82.677168,0,0.42587271704,4.9564634132,17,5,16.576,1366.8949233338,83.005252,0.447388,0.79621393624,0,0,-6.71082,94.8, 1.2, -0.9,0,0,1024,1024,1024,1024,0,0,0,0,94.3,-89.9,0,95,4.156,4.145,4.144,4.131,0,0,0,32,1366.8949233338,83.005252,14,Waypoint,
13400,2023-05-24 09:08:16,37.1814901424216,128.192822962296,83.989504,,,1367.8791753338,83.333336,0,0.39119751908,5.0002626272,17,5,16.576,1367.8791753338,83.989504,0.447388,0.79621393624,0,0,-6.71082,94.8, 1, -1.2,0,0,1024,1024,1024,1024,0,0,0,0,94.3,-90,0,95,4.156,4.145,4.144,4.131,0,0,0,32,1367.8791753338,83.989504,14,Waypoint,
13500,2023-05-24 09:08:16,37.1814901262072,128.192822976229,84.973756,,,1368.8634273338,83.66142,0,0.3899934508,5.0074148584,17,5,16.576,1368.8634273338,84.973756,0.447388,0.79621393624,0,0,-6.71082,94.8, 1, -1.2,0,0,1024,1024,1024,1024,0,0,0,0,94.3,-90,0,95,4.156,4.145,4.144,4.131,0,0,0,32,1368.8634273338,84.973756,14,Waypoint,
13600,2023-05-24 09:08:16,37.1814900484545,128.192823092265,85.958008,,,1369.8476793338,83.66142,0,0.39732284736,5.051509348,17,5,16.576,1369.8476793338,85.958008,0.447388,0.79621393624,0,0,-6.71082,94.8, 1.2, -1.1,0,0,1024,1024,1024,1024,0,0,0,0,94.3,-90,0,95,4.156,4.145,4.144,4.131,0,0,0,32,1369.8476793338,85.958008,14,Waypoint,
13700,2023-05-24 09:08:16,37.1814900446907,128.192823120687,86.94226,,,1370.8319313338,83.66142,0,0.40312009164,5.05987549,17,5,16.576,1370.8319313338,86.94226,0.447388,0.79621393624,0,0,-6.71082,94.8, 1.2, -1,0,0,1024,1024,1024,1024,0,0,0,0,94.3,-90,0,95,4.156,4.145,4.144,4.131,0,0,0,32,1370.8319313338,86.94226,14,Waypoint,
13800,2023-05-24 09:08:16,37.1814899868469,128.19282323148,87.926512,,,1371.8161833338,83.66142,0,0.4181102496,5.0983925516,17,5,16.576,1371.8161833338,87.926512,0.447388,0.79621393624,0,0,-6.71082,94.7, 1.2, -0.8,0,0,1024,1024,1024,1024,0,0,0,0,94.3,-89.9,0,95,4.156,4.145,4.144,4.131,0,0,0,32,1371.8161833338,87.926512,14,Waypoint,
13900,2023-05-24 09:08:16,37.1814899965209,128.192823270634,88.910764,,,1372.8004353338,83.66142,0,0.4296752106,5.1103020008,17,5,16.576,1372.8004353338,88.910764,0.447388,0.79621393624,0,0,-6.71082,94.7, 1.3, -0.4,0,0,1024,1024,1024,1024,0,0,0,0,94.3,-89.9,0,95,4.156,4.145,4.144,4.131,0,0,0,32,1372.8004353338,88.910764,14,Waypoint,
14000,2023-05-24 09:08:16,37.1814899223345,128.192823219009,89.895016,,,1373.7846873338,83.66142,0,0.4031660234,5.141240322,17,5,16.569,1373.7846873338,89.895016,0.447388,0.79621393624,0,0,-6.71082,94.8, 1.4, -0.6,0,0,1024,1024,1024,1024,0,0,0,0,94.3,-89.9,0,95,4.154,4.144,4.142,4.129,0,0,0,32,1373.7846873338,89.895016,14,Waypoint,
14100,2023-05-24 09:08:17,37.1814899206488,128.192823258061,90.879268,,,1374.7689393338,83.66142,0,0.4128609056,5.1526248368,17,5,16.569,1374.7689393338,90.879268,0.447388,0.79621393624,0,0,-6.71082,94.8, 1.6, -0.7,0,0,1024,1024,1024,1024,0,0,0,0,94.3,-89.9,0,95,4.154,4.144,4.142,4.129,0,0,0,32,1374.7689393338,90.879268,14,Waypoint,
14200,2023-05-24 09:08:17,37.1814899671466,128.192823370793,91.86352,,,1375.7531913338,83.66142,0,0.44976051308,5.1895014784,17,5,16.569,1375.7531913338,91.86352,0.447388,0.79621393624,0,0,-6.71082,94.8, 1.7, -0.7,0,0,1024,1024,1024,1024,0,0,0,0,94.3,-89.9,0,95,4.154,4.144,4.142,4.129,0,0,0,32,1375.7531913338,91.86352,14,Waypoint,
14300,2023-05-24 09:08:17,37.1814899773187,128.192823415024,92.847772,,,1376.7374433338,83.66142,0,0.46286746888,5.2028873056,17,5,16.569,1376.7374433338,92.847772,0.447388,0.79621393624,0,0,-6.71082,94.8, 1.7, -0.7,0,0,1024,1024,1024,1024,0,0,0,0,94.3,-89.9,0,95,4.154,4.144,4.142,4.129,0,0,0,32,1376.7374433338,92.847772,14,Waypoint,
14400,2023-05-24 09:08:17,37.1814899802904,128.192823335427,93.832024,,,1377.7216953338,83.66142,0,0.44301510604,5.226050036,17,5,16.569,1377.7216953338,93.832024,0.447388,0.79621393624,0,0,-6.71082,94.8, 1.6, -0.6,0,0,1024,1024,1024,1024,0,0,0,0,94.3,-89.9,0,95,4.154,4.144,4.142,4.129,0,0,0,32,1377.7216953338,93.832024,14,Waypoint,
14500,2023-05-24 09:08:17,37.1814899967931,128.192823370614,94.816276,,,1378.7059473338,83.66142,0,0.45487862348,5.2379266768,17,5,16.569,1378.7059473338,94.816276,0.447388,0.79621393624,0,0,-6.71082,94.8, 1.6, -0.4,0,0,1024,1024,1024,1024,0,0,0,0,94.3,-89.9,0,95,4.154,4.144,4.142,4.129,0,0,0,32,1378.7059473338,94.816276,14,Waypoint,
14600,2023-05-24 09:08:17,37.1814900050926,128.192823454391,95.800528,,,1379.6901993338,83.66142,0,0.47771655072,5.26246736,17,5,16.569,1379.6901993338,95.800528,0.447388,0.79621393624,0,0,-6.71082,94.8, 1.7, -0.5,0,0,1024,1024,1024,1024,0,0,0,0,94.3,-89.9,0,95,4.154,4.144,4.142,4.129,0,0,0,32,1379.6901993338,95.800528,14,Waypoint,
14700,2023-05-24 09:08:17,37.1814900235019,128.192823497744,96.78478,,,1380.6744513338,83.66142,0,0.4919947664,5.276739014,17,5,16.569,1380.6744513338,96.78478,0.447388,0.79621393624,0,0,-6.71082,94.8, 1.9, -0.4,0,0,1024,1024,1024,1024,0,0,0,0,94.3,-89.9,0,95,4.154,4.144,4.142,4.129,0,0,0,32,1380.6744513338,96.78478,14,Waypoint,
14800,2023-05-24 09:08:17,37.1814900145066,128.192823419901,97.769032,,,1381.6587033338,83.66142,0,0.47054135364,5.2996064688,17,5,16.569,1381.6587033338,97.769032,0.447388,0.79621393624,0,0,-6.71082,94.8, 2, -0.3,0,0,1024,1024,1024,1024,0,0,0,0,94.3,-89.9,0,95,4.154,4.144,4.142,4.129,0,0,0,32,1381.6587033338,97.769032,14,Waypoint,
14900,2023-05-24 09:08:17,37.1814900312232,128.192823448899,98.753284,,,1382.6429553338,83.66142,0,0.4808727188,5.3100067316,17,5,16.569,1382.6429553338,98.753284,0.447388,0.79621393624,0,0,-6.71082,94.8, 2, -0.2,0,0,1024,1024,1024,1024,0,0,0,0,94.3,-89.9,0,95,4.154,4.144,4.142,4.129,0,0,0,32,1382.6429553338,98.753284,14,Waypoint,
15000,2023-05-24 09:08:17,37.18149016573,128.192823537143,99.737536,,,1383.6272073338,83.66142,0,0.52803807464,5.3653873108,17,5,16.555,1383.6272073338,99.737536,0.447388,0.79621393624,0,0,-6.71082,94.8, 2, -0.1,0,0,1024,1024,1024,1024,0,0,0,0,94.3,-89.9,0,95,4.151,4.14,4.138,4.126,0,0,0,32,1383.6272073338,99.737536,14,Waypoint,
15100,2023-05-24 09:08:17,37.1814901883893,128.192823564552,100.721788,,,1384.6114593338,83.66142,0,0.53920277316,5.3768702508,17,5,16.555,1384.6114593338,100.721788,0.447388,0.79621393624,0,0,-6.71082,94.8, 2.1, -0.1,0,0,1024,1024,1024,1024,0,0,0,0,94.3,-89.9,0,95,4.151,4.14,4.138,4.126,0,0,0,32,1384.6114593338,100.721788,14,Waypoint,
15200,2023-05-24 09:08:18,37.1814901282859,128.192823632945,101.70604,,,1385.5957113338,83.66142,0,0.544865503,5.4064634276,17,5,16.555,1385.5957113338,101.70604,0.447388,0.79621393624,0,0,-6.71082,94.8, 2.1, 0,0,0,1024,1024,1024,1024,0,0,0,0,94.3,-89.9,0,95,4.151,4.14,4.138,4.126,0,0,0,32,1385.5957113338,101.70604,14,Waypoint,
15300,2023-05-24 09:08:18,37.1814901380072,128.192823656824,102.690292,,,1386.5799633338,83.66142,0,0.55265421716,5.4142718268,17,5,16.555,1386.5799633338,102.690292,0.447388,0.79621393624,0,0,-6.71082,94.8, 2, 0,0,0,1024,1024,1024,1024,0,0,0,0,94.3,-90,0,95,4.151,4.14,4.138,4.126,0,0,0,32,1386.5799633338,102.690292,14,Waypoint,
15400,2023-05-24 09:08:18,37.1814902425106,128.192823559349,103.674544,,,1387.5642153338,83.66142,0,0.54887797032,5.46177839,17,5,16.555,1387.5642153338,103.674544,0.447388,0.79621393624,0,0,-6.71082,94.8, 1.9, 0,0,0,1024,1024,1024,1024,0,0,0,0,94.3,-89.9,0,95,4.151,4.14,4.138,4.126,0,0,0,32,1387.5642153338,103.674544,14,Waypoint,
15500,2023-05-24 09:08:18,37.1814902485775,128.192823569131,104.658796,,,1388.5484673338,83.66142,0,0.55247377096,5.465387314,17,5,16.555,1388.5484673338,104.658796,0.447388,0.79621393624,0,0,-6.71082,94.8, 2, -0.3,0,0,1024,1024,1024,1024,0,0,0,0,94.3,-90,0,95,4.151,4.14,4.138,4.126,0,0,0,32,1388.5484673338,104.658796,14,Waypoint,
15600,2023-05-24 09:08:18,37.1814901790768,128.192823669622,105.643048,,,1389.5327193338,83.66142,0,0.56339896816,5.5040684176,17,5,16.555,1389.5327193338,105.643048,0.447388,0.79621393624,0,0,-6.71082,94.8, 2.1, -0.5,0,0,1024,1024,1024,1024,0,0,0,0,94.3,-89.9,0,95,4.151,4.14,4.138,4.126,0,0,0,32,1389.5327193338,105.643048,14,Waypoint,
15700,2023-05-24 09:08:18,37.1814901770835,128.192823685497,106.6273,,,1390.5169713338,83.66142,0,0.56700133048,5.5087272104,17,5,16.555,1390.5169713338,106.6273,0.447388,0.79621393624,0,0,-6.71082,94.8, 2.2, -0.4,0,0,1024,1024,1024,1024,0,0,0,0,94.3,-89.9,0,95,4.151,4.14,4.138,4.126,0,0,0,32,1390.5169713338,106.6273,14,Waypoint,
15800,2023-05-24 09:08:18,37.1814903029738,128.192823789953,107.611552,,,1391.5012233338,83.66142,0,0.61692587276,5.5637797056,17,5,16.555,1391.5012233338,107.611552,0.447388,0.79621393624,0,0,-6.71082,94.8, 2.2, -0.3,0,0,1024,1024,1024,1024,0,0,0,0,94.3,-89.9,0,95,4.151,4.14,4.138,4.126,0,0,0,32,1391.5012233338,107.611552,14,Waypoint,
15900,2023-05-24 09:08:18,37.1814903135151,128.192823804603,108.595804,,,1392.4854753338,83.66142,0,0.62258532176,5.5695211756,17,5,16.555,1392.4854753338,108.595804,0.447388,0.79621393624,0,0,-6.71082,94.8, 2.2, -0.3,0,0,1024,1024,1024,1024,0,0,0,0,94.3,-90,0,95,4.151,4.14,4.138,4.126,0,0,0,32,1392.4854753338,108.595804,14,Waypoint,
16000,2023-05-24 09:08:18,37.1814902917288,128.192823738887,109.580056,,,1393.4697273338,83.66142,0,0.6022309904,5.590223276,17,5,16.561,1393.4697273338,109.580056,0.447388,0.79621393624,0,0,-6.71082,94.8, 2.1, -0.4,0,0,1024,1024,1024,1024,0,0,0,0,94.3,-89.9,0,95,4.152,4.142,4.14,4.127,0,0,0,32,1393.4697273338,109.580056,14,Waypoint,
16100,2023-05-24 09:08:18,37.1814902974164,128.192823742122,110.564308,,,1394.4539793338,83.66142,0,0.60415684348,5.5924870556,17,5,16.561,1394.4539793338,110.564308,0.447388,0.79621393624,0,0,-6.71082,94.8, 2.1, -0.4,0,0,1024,1024,1024,1024,0,0,0,0,94.3,-89.9,0,95,4.152,4.142,4.14,4.127,0,0,0,32,1394.4539793338,110.564308,14,Waypoint,
16200,2023-05-24 09:08:19,37.1814902812507,128.192823692683,111.54856,,,1395.4382313338,83.66142,0,0.58891078,5.6080382372,17,5,16.561,1395.4382313338,111.54856,0.447388,0.79621393624,0,0,-6.71082,94.8, 2, -0.4,0,0,1024,1024,1024,1024,0,0,0,0,94.3,-89.9,0,95,4.152,4.142,4.14,4.127,0,0,0,32,1395.4382313338,111.54856,14,Waypoint,
16300,2023-05-24 09:08:19,37.1814902868954,128.192823689736,112.532812,,,1396.4224833338,83.66142,0,0.5893372892,5.6102692084,17,5,16.561,1396.4224833338,112.532812,0.447388,0.79621393624,0,0,-6.71082,94.8, 2.1, -0.3,0,0,1024,1024,1024,1024,0,0,0,0,94.3,-89.9,0,95,4.152,4.142,4.14,4.127,0,0,0,32,1396.4224833338,112.532812,14,Waypoint,
16400,2023-05-24 09:08:19,37.1814902738338,128.192823672106,113.517064,,,1397.4067353338,83.66142,0,0.582431121,5.6172573976,17,5,16.561,1397.4067353338,113.517064,0.447388,0.79621393624,0,0,-6.71082,94.8, 2.1, -0.5,0,0,1024,1024,1024,1024,0,0,0,0,94.3,-89.9,0,95,4.152,4.142,4.14,4.127,0,0,0,32,1397.4067353338,113.517064,14,Waypoint,
16500,2023-05-24 09:08:19,37.18149027724,128.192823666209,114.501316,,,1398.3909873338,83.66142,0,0.581692932,5.6193571352,17,5,16.561,1398.3909873338,114.501316,0.447388,0.79621393624,0,0,-6.71082,94.8, 2.1, -0.4,0,0,1024,1024,1024,1024,0,0,0,0,94.3,-89.9,0,95,4.152,4.142,4.14,4.127,0,0,0,32,1398.3909873338,114.501316,14,Waypoint,
16600,2023-05-24 09:08:19,37.1814901127563,128.192823825877,115.485568,,,1399.3752393338,83.66142,0,0.59171261736,5.6952429644,17,5,16.561,1399.3752393338,115.485568,0.447388,0.79621393624,0,0,-6.71082,94.8, 2.3, -0.5,0,0,1024,1024,1024,1024,0,0,0,0,94.3,-89.9,0,95,4.152,4.142,4.14,4.127,0,0,0,32,1399.3752393338,115.485568,14,Waypoint,
16700,2023-05-24 09:08:19,37.181490106426,128.192823828205,116.46982,,,1400.3594913338,83.66142,0,0.59129266984,5.6976379776,17,5,16.561,1400.3594913338,116.46982,0.447388,0.79621393624,0,0,-6.71082,94.8, 2.3, -0.6,0,0,1024,1024,1024,1024,0,0,0,0,94.3,-89.9,0,95,4.152,4.142,4.14,4.127,0,0,0,32,1400.3594913338,116.46982,14,Waypoint,
16800,2023-05-24 09:08:19,37.181490132163,128.192823798436,117.454072,,,1401.3437433338,83.66142,0,0.5878116986,5.7104004452,17,5,16.561,1401.3437433338,117.454072,0.447388,0.79621393624,0,0,-6.71082,94.8, 2.1, -0.5,0,0,1024,1024,1024,1024,0,0,0,0,94.3,-90,0,95,4.152,4.142,4.14,4.127,0,0,0,32,1401.3437433338,117.454072,14,Waypoint,
16900,2023-05-24 09:08:19,37.1814901365496,128.192823795386,118.438324,,,1402.3279953338,83.66142,0,0.58776576684,5.7122377156,17,5,16.561,1402.3279953338,118.438324,0.447388,0.79621393624,0,0,-6.71082,94.8, 2, -0.4,0,0,1024,1024,1024,1024,0,0,0,0,94.3,-89.9,0,95,4.152,4.142,4.14,4.127,0,0,0,32,1402.3279953338,118.438324,14,Waypoint,
17000,2023-05-24 09:08:19,37.1814901666094,128.192823777303,119.422576,,,1403.3122473338,83.66142,0,0.58831694796,5.724409632,17,5,16.551,1403.3122473338,119.422576,0.447388,0.79621393624,0,0,-6.71082,94.8, 2.2, -0.3,0,0,1024,1024,1024,1024,0,0,0,0,94.3,-89.9,0,95,4.15,4.139,4.138,4.124,0,0,0,32,1403.3122473338,119.422576,14,Waypoint,
17100,2023-05-24 09:08:19,37.1814901711729,128.192823772749,120.406828,,,1404.2964993338,83.66142,0,0.58796261724,5.726542178,17,5,16.551,1404.2964993338,120.406828,0.447388,0.79621393624,0,0,-6.71082,94.8, 2.1, -0.4,0,0,1024,1024,1024,1024,0,0,0,0,94.3,-89.9,0,95,4.15,4.139,4.138,4.124,0,0,0,32,1404.2964993338,120.406828,14,Waypoint,
17200,2023-05-24 09:08:20,37.1814901777458,128.192823771246,121.39108,,,1405.2807513338,83.66142,0,0.588746738,5.7289699996,17,5,16.551,1405.2807513338,121.39108,0.447388,0.79621393624,0,0,-6.71082,94.8, 2.1, -0.4,0,0,1024,1024,1024,1024,0,0,0,0,94.3,-89.9,0,95,4.15,4.139,4.138,4.124,0,0,0,32,1405.2807513338,121.39108,14,Waypoint,
17300,2023-05-24 09:08:20,37.1814901820675,128.192823762843,122.375332,,,1406.2650033338,83.66142,0,0.58739175108,5.7318899472,17,5,16.551,1406.2650033338,122.375332,0.447388,0.79621393624,0,0,-6.71082,94.8, 2.1, -0.5,0,0,1024,1024,1024,1024,0,0,0,0,94.3,-89.9,0,95,4.15,4.139,4.138,4.124,0,0,0,32,1406.2650033338,122.375332,14,Waypoint,
17400,2023-05-24 09:08:20,37.1814903299749,128.19282376616,123.359584,,,1407.2492553338,83.66142,0,0.61654201448,5.7858597652,17,5,16.551,1407.2492553338,123.359584,0.447388,0.79621393624,0,0,-6.71082,94.8, 2.2, -0.2,0,0,1024,1024,1024,1024,0,0,0,0,94.3,-90,0,95,4.15,4.139,4.138,4.124,0,0,0,32,1407.2492553338,123.359584,14,Waypoint,
17500,2023-05-24 09:08:20,37.1814903466915,128.192823757378,124.343836,,,1408.2335073338,83.66142,0,0.6178477888,5.7924542536,17,5,16.551,1408.2335073338,124.343836,0.447388,0.79621393624,0,0,-6.71082,94.8, 2.2, -0.2,0,0,1024,1024,1024,1024,0,0,0,0,94.3,-89.9,0,95,4.15,4.139,4.138,4.124,0,0,0,32,1408.2335073338,124.343836,14,Waypoint,
17600,2023-05-24 09:08:20,37.1814903113606,128.192823757831,125.328088,,,1409.2177593338,83.66142,0,0.61076445524,5.8053479548,17,5,16.551,1409.2177593338,125.328088,0.447388,0.79621393624,0,0,-6.71082,94.8, 2.2, -0.3,0,0,1024,1024,1024,1024,0,0,0,0,94.3,-90,0,95,4.15,4.139,4.138,4.124,0,0,0,32,1409.2177593338,125.328088,14,Waypoint,
17700,2023-05-24 09:08:20,37.1814903171411,128.192823743562,126.31234,,,1410.2020113338,83.66142,0,0.60847770976,5.8100067476,17,5,16.551,1410.2020113338,126.31234,0.447388,0.79621393624,0,0,-6.934514,94.8, 2.1, -0.3,0,0,1024,1024,1024,1024,0,0,0,0,94.3,-89.9,0,95,4.15,4.139,4.138,4.124,0,0,0,32,1410.2020113338,126.31234,14,Waypoint,
